{
"type": "FeatureCollection",
"name": "Top_100_POIs",
"crs": { "type": "name", "properties": { "name": "urn:ogc:def:crs:OGC:1.3:CRS84" } },
"features": [
{ "type": "Feature", "properties": { "geog": "Houston", "name": "Daikin Park", "rowid": 1 }, "geometry": { "type": "Point", "coordinates": [ -95.355078, 29.7573693 ] } },
{ "type": "Feature", "properties": { "geog": "Houston", "name": "Hilton", "rowid": 2 }, "geometry": { "type": "Point", "coordinates": [ -95.3606982, 29.7513658 ] } },
{ "type": "Feature", "properties": { "geog": "Houston", "name": "Marriott Marquis Houston", "rowid": 3 }, "geometry": { "type": "Point", "coordinates": [ -95.3580685, 29.7544633 ] } },
{ "type": "Feature", "properties": { "geog": "Houston", "name": "Toyota Center", "rowid": 4 }, "geometry": { "type": "Point", "coordinates": [ -95.3621364, 29.7507716 ] } },
{ "type": "Feature", "properties": { "geog": "Houston", "name": "Hilton Americas Valet and Self Parking", "rowid": 5 }, "geometry": { "type": "Point", "coordinates": [ -95.3606615, 29.7514407 ] } },
{ "type": "Feature", "properties": { "geog": "Houston", "name": "The Laura Hotel, Houston Downtown, Autograph Collection", "rowid": 6 }, "geometry": { "type": "Point", "coordinates": [ -95.3655839, 29.7549482 ] } },
{ "type": "Feature", "properties": { "geog": "Houston", "name": "Hyatt Regency Houston Downtown", "rowid": 7 }, "geometry": { "type": "Point", "coordinates": [ -95.3695218, 29.7568105 ] } },
{ "type": "Feature", "properties": { "geog": "Houston", "name": "C. Baldwin, Curio Collection by Hilton", "rowid": 8 }, "geometry": { "type": "Point", "coordinates": [ -95.3710878, 29.7579719 ] } },
{ "type": "Feature", "properties": { "geog": "Houston", "name": "JW Marriott Houston Downtown", "rowid": 9 }, "geometry": { "type": "Point", "coordinates": [ -95.3641265, 29.7584062 ] } },
{ "type": "Feature", "properties": { "geog": "Houston", "name": "Magnolia Hotel Houston, a Tribute Portfolio Hotel", "rowid": 10 }, "geometry": { "type": "Point", "coordinates": [ -95.3617021, 29.7591208 ] } },
{ "type": "Feature", "properties": { "geog": "Houston", "name": "Four Seasons", "rowid": 11 }, "geometry": { "type": "Point", "coordinates": [ -95.3627686, 29.7540641 ] } },
{ "type": "Feature", "properties": { "geog": "Houston", "name": "AC Hotel Houston Downtown", "rowid": 12 }, "geometry": { "type": "Point", "coordinates": [ -95.363358, 29.7584788 ] } },
{ "type": "Feature", "properties": { "geog": "Houston", "name": "Le Méridien Houston Downtown", "rowid": 13 }, "geometry": { "type": "Point", "coordinates": [ -95.362722, 29.7569655 ] } },
{ "type": "Feature", "properties": { "geog": "Houston", "name": "Hotel Zaza", "rowid": 14 }, "geometry": { "type": "Point", "coordinates": [ -95.3900921, 29.7242279 ] } },
{ "type": "Feature", "properties": { "geog": "Houston", "name": "The Westin Houston Medical Center", "rowid": 15 }, "geometry": { "type": "Point", "coordinates": [ -95.4015958, 29.7097064 ] } },
{ "type": "Feature", "properties": { "geog": "Houston", "name": "Taste Kitchen + Bar", "rowid": 16 }, "geometry": { "type": "Point", "coordinates": [ -95.3619743, 29.7609546 ] } },
{ "type": "Feature", "properties": { "geog": "Houston", "name": "Intercontinental Houston", "rowid": 17 }, "geometry": { "type": "Point", "coordinates": [ -95.4046418, 29.7075956 ] } },
{ "type": "Feature", "properties": { "geog": "Houston", "name": "Houston Marriott Medical Center/Museum District", "rowid": 18 }, "geometry": { "type": "Point", "coordinates": [ -95.4008304, 29.7104705 ] } },
{ "type": "Feature", "properties": { "geog": "Houston", "name": "713 Music Hall", "rowid": 19 }, "geometry": { "type": "Point", "coordinates": [ -95.3640226, 29.765963 ] } },
{ "type": "Feature", "properties": { "geog": "Houston", "name": "The Whitehall", "rowid": 20 }, "geometry": { "type": "Point", "coordinates": [ -95.3733816, 29.7536797 ] } },
{ "type": "Feature", "properties": { "geog": "Houston", "name": "Club Quarters Hotel Downton, Houston", "rowid": 21 }, "geometry": { "type": "Point", "coordinates": [ -95.3629126, 29.758108 ] } },
{ "type": "Feature", "properties": { "geog": "Houston", "name": "Life Tower", "rowid": 22 }, "geometry": { "type": "Point", "coordinates": [ -95.404214, 29.7055938 ] } },
{ "type": "Feature", "properties": { "geog": "Houston", "name": "Cambria Hotel Houston Downtown Convention Center", "rowid": 23 }, "geometry": { "type": "Point", "coordinates": [ -95.3594831, 29.7577741 ] } },
{ "type": "Feature", "properties": { "geog": "Houston", "name": "Thompson Hotels", "rowid": 24 }, "geometry": { "type": "Point", "coordinates": [ -95.3820286, 29.7606061 ] } },
{ "type": "Feature", "properties": { "geog": "Houston", "name": "Blossom Hotel Houston", "rowid": 25 }, "geometry": { "type": "Point", "coordinates": [ -95.3996173, 29.6992166 ] } },
{ "type": "Feature", "properties": { "geog": "Houston", "name": "JR's Bar & Grill", "rowid": 26 }, "geometry": { "type": "Point", "coordinates": [ -95.3901064, 29.7468839 ] } },
{ "type": "Feature", "properties": { "geog": "Houston", "name": "Embassy Suites by Hilton Houston Downtown", "rowid": 27 }, "geometry": { "type": "Point", "coordinates": [ -95.3613928, 29.7529879 ] } },
{ "type": "Feature", "properties": { "geog": "Houston", "name": "Aloft Houston Downtown", "rowid": 28 }, "geometry": { "type": "Point", "coordinates": [ -95.3635784, 29.7575239 ] } },
{ "type": "Feature", "properties": { "geog": "Houston", "name": "Ben Taub Hospital", "rowid": 29 }, "geometry": { "type": "Point", "coordinates": [ -95.3933746, 29.7105902 ] } },
{ "type": "Feature", "properties": { "geog": "Houston", "name": "Austin's Backyard", "rowid": 30 }, "geometry": { "type": "Point", "coordinates": [ -95.4209425, 29.8040477 ] } },
{ "type": "Feature", "properties": { "geog": "Houston", "name": "Little Woodrow’s Eado", "rowid": 31 }, "geometry": { "type": "Point", "coordinates": [ -95.354172, 29.752353 ] } },
{ "type": "Feature", "properties": { "geog": "Houston", "name": "White Oak Music Hall", "rowid": 32 }, "geometry": { "type": "Point", "coordinates": [ -95.3668465, 29.7858385 ] } },
{ "type": "Feature", "properties": { "geog": "Houston", "name": "Ut Md Anderson Hospital", "rowid": 33 }, "geometry": { "type": "Point", "coordinates": [ -95.3970021, 29.706861 ] } },
{ "type": "Feature", "properties": { "geog": "Houston", "name": "Jesse H. Jones Rotary House International", "rowid": 34 }, "geometry": { "type": "Point", "coordinates": [ -95.3959016, 29.7056645 ] } },
{ "type": "Feature", "properties": { "geog": "Houston", "name": "Hotel ICON, Autograph Collection", "rowid": 35 }, "geometry": { "type": "Point", "coordinates": [ -95.3610494, 29.7626678 ] } },
{ "type": "Feature", "properties": { "geog": "Houston", "name": "Santé", "rowid": 36 }, "geometry": { "type": "Point", "coordinates": [ -95.4155213, 29.7339288 ] } },
{ "type": "Feature", "properties": { "geog": "Houston", "name": "Hampton Inn Houston Downtown", "rowid": 37 }, "geometry": { "type": "Point", "coordinates": [ -95.3586317, 29.7559296 ] } },
{ "type": "Feature", "properties": { "geog": "Houston", "name": "Blvd Park", "rowid": 38 }, "geometry": { "type": "Point", "coordinates": [ -95.41918, 29.8041 ] } },
{ "type": "Feature", "properties": { "geog": "Houston", "name": "Kirby Ice House", "rowid": 39 }, "geometry": { "type": "Point", "coordinates": [ -95.4243477, 29.7356513 ] } },
{ "type": "Feature", "properties": { "geog": "Houston", "name": "Post", "rowid": 40 }, "geometry": { "type": "Point", "coordinates": [ -95.3647109, 29.766065 ] } },
{ "type": "Feature", "properties": { "geog": "Houston", "name": "Down The Street", "rowid": 41 }, "geometry": { "type": "Point", "coordinates": [ -95.4261135, 29.7792356 ] } },
{ "type": "Feature", "properties": { "geog": "Houston", "name": "Hilton-Houston Plaza/Medical Center", "rowid": 42 }, "geometry": { "type": "Point", "coordinates": [ -95.403275, 29.709904 ] } },
{ "type": "Feature", "properties": { "geog": "Houston", "name": "Hermann Park", "rowid": 43 }, "geometry": { "type": "Point", "coordinates": [ -95.3887019, 29.7142037 ] } },
{ "type": "Feature", "properties": { "geog": "Houston", "name": "Michael E. Debakey Department of Veterans Affairs Medical Center", "rowid": 44 }, "geometry": { "type": "Point", "coordinates": [ -95.3888346, 29.6999905 ] } },
{ "type": "Feature", "properties": { "geog": "Houston", "name": "SpringHill Suites Houston Downtown/Convention Center", "rowid": 45 }, "geometry": { "type": "Point", "coordinates": [ -95.3666568, 29.7556148 ] } },
{ "type": "Feature", "properties": { "geog": "Houston", "name": "Hyatt Place", "rowid": 46 }, "geometry": { "type": "Point", "coordinates": [ -95.3613948, 29.7589922 ] } },
{ "type": "Feature", "properties": { "geog": "Houston", "name": "George R. Brown Convention Center", "rowid": 47 }, "geometry": { "type": "Point", "coordinates": [ -95.3577358, 29.7521564 ] } },
{ "type": "Feature", "properties": { "geog": "Houston", "name": "Walmart Supercenter", "rowid": 48 }, "geometry": { "type": "Point", "coordinates": [ -95.4013174, 29.7727612 ] } },
{ "type": "Feature", "properties": { "geog": "Houston", "name": "Memorial Hermann-Texas Medical Center", "rowid": 49 }, "geometry": { "type": "Point", "coordinates": [ -95.3961282, 29.7138322 ] } },
{ "type": "Feature", "properties": { "geog": "Houston", "name": "Houston Museum Natural Science", "rowid": 50 }, "geometry": { "type": "Point", "coordinates": [ -95.38952, 29.72152 ] } },
{ "type": "Feature", "properties": { "geog": "Houston", "name": "DoubleTree by Hilton Hotel Houston - Greenway Plaza", "rowid": 51 }, "geometry": { "type": "Point", "coordinates": [ -95.4327042, 29.7309285 ] } },
{ "type": "Feature", "properties": { "geog": "Houston", "name": "Chapman & Kirby", "rowid": 52 }, "geometry": { "type": "Point", "coordinates": [ -95.3559443, 29.7500946 ] } },
{ "type": "Feature", "properties": { "geog": "Houston", "name": "Target", "rowid": 53 }, "geometry": { "type": "Point", "coordinates": [ -95.3853731, 29.7742049 ] } },
{ "type": "Feature", "properties": { "geog": "Houston", "name": "The Lancaster Hotel", "rowid": 54 }, "geometry": { "type": "Point", "coordinates": [ -95.3647864, 29.7615549 ] } },
{ "type": "Feature", "properties": { "geog": "Houston", "name": "Anvil Bar & Refuge", "rowid": 55 }, "geometry": { "type": "Point", "coordinates": [ -95.3968543, 29.7430044 ] } },
{ "type": "Feature", "properties": { "geog": "Houston", "name": "McIntyre's", "rowid": 56 }, "geometry": { "type": "Point", "coordinates": [ -95.4217257, 29.803043 ] } },
{ "type": "Feature", "properties": { "geog": "Houston", "name": "Axelrad", "rowid": 57 }, "geometry": { "type": "Point", "coordinates": [ -95.3747442, 29.7349964 ] } },
{ "type": "Feature", "properties": { "geog": "Houston", "name": "Bauhaus", "rowid": 58 }, "geometry": { "type": "Point", "coordinates": [ -95.3618132, 29.747576 ] } },
{ "type": "Feature", "properties": { "geog": "Houston", "name": "Dome Houston Nightclub", "rowid": 59 }, "geometry": { "type": "Point", "coordinates": [ -95.3701593, 29.7515355 ] } },
{ "type": "Feature", "properties": { "geog": "Houston", "name": "EZ’s Liquor Lounge", "rowid": 60 }, "geometry": { "type": "Point", "coordinates": [ -95.3931365, 29.7817331 ] } },
{ "type": "Feature", "properties": { "geog": "Houston", "name": "NOTO Houston", "rowid": 61 }, "geometry": { "type": "Point", "coordinates": [ -95.3454436, 29.7453464 ] } },
{ "type": "Feature", "properties": { "geog": "Houston", "name": "Hyatt Place Houston Medical Center", "rowid": 62 }, "geometry": { "type": "Point", "coordinates": [ -95.4005882, 29.6966439 ] } },
{ "type": "Feature", "properties": { "geog": "Houston", "name": "Barbarella", "rowid": 63 }, "geometry": { "type": "Point", "coordinates": [ -95.3720057, 29.7455886 ] } },
{ "type": "Feature", "properties": { "geog": "Houston", "name": "Emergency Department, MD Anderson", "rowid": 64 }, "geometry": { "type": "Point", "coordinates": [ -95.3980502, 29.7070666 ] } },
{ "type": "Feature", "properties": { "geog": "Houston", "name": "Residence Inn Houston Downtown/Convention Center", "rowid": 65 }, "geometry": { "type": "Point", "coordinates": [ -95.3668565, 29.755749 ] } },
{ "type": "Feature", "properties": { "geog": "Houston", "name": "Pappadeaux Seafood Kitchen", "rowid": 66 }, "geometry": { "type": "Point", "coordinates": [ -95.3600308, 29.7512792 ] } },
{ "type": "Feature", "properties": { "geog": "Houston", "name": "The Westin Houston Downtown", "rowid": 67 }, "geometry": { "type": "Point", "coordinates": [ -95.3578721, 29.7567244 ] } },
{ "type": "Feature", "properties": { "geog": "Houston", "name": "Steak 48", "rowid": 68 }, "geometry": { "type": "Point", "coordinates": [ -95.4542423, 29.7420925 ] } },
{ "type": "Feature", "properties": { "geog": "Houston", "name": "Md Anderson", "rowid": 69 }, "geometry": { "type": "Point", "coordinates": [ -95.3970938, 29.7079417 ] } },
{ "type": "Feature", "properties": { "geog": "Houston", "name": "Minute Maid Park-Centerfield Ent", "rowid": 70 }, "geometry": { "type": "Point", "coordinates": [ -95.35636, 29.75834 ] } },
{ "type": "Feature", "properties": { "geog": "Houston", "name": "Lost and Found", "rowid": 71 }, "geometry": { "type": "Point", "coordinates": [ -95.3811594, 29.7534687 ] } },
{ "type": "Feature", "properties": { "geog": "Houston", "name": "Houston Community College's Central Campus", "rowid": 72 }, "geometry": { "type": "Point", "coordinates": [ -95.3764852, 29.7374073 ] } },
{ "type": "Feature", "properties": { "geog": "Houston", "name": "DoubleTree by Hilton Houston Medical Center Hotel & Suites", "rowid": 73 }, "geometry": { "type": "Point", "coordinates": [ -95.404975, 29.707298 ] } },
{ "type": "Feature", "properties": { "geog": "Houston", "name": "Courtyard by Marriott Houston Heights/I-10", "rowid": 74 }, "geometry": { "type": "Point", "coordinates": [ -95.3925792, 29.7775512 ] } },
{ "type": "Feature", "properties": { "geog": "Houston", "name": "Fabians Latin Flavors", "rowid": 75 }, "geometry": { "type": "Point", "coordinates": [ -95.3599407, 29.7623637 ] } },
{ "type": "Feature", "properties": { "geog": "Houston", "name": "Sekai", "rowid": 76 }, "geometry": { "type": "Point", "coordinates": [ -95.3586328, 29.7468751 ] } },
{ "type": "Feature", "properties": { "geog": "Houston", "name": "Mays Clinic", "rowid": 77 }, "geometry": { "type": "Point", "coordinates": [ -95.4000816, 29.7050919 ] } },
{ "type": "Feature", "properties": { "geog": "Houston", "name": "Urban Social", "rowid": 78 }, "geometry": { "type": "Point", "coordinates": [ -95.4400295, 29.7322466 ] } },
{ "type": "Feature", "properties": { "geog": "Houston", "name": "Biggio's", "rowid": 79 }, "geometry": { "type": "Point", "coordinates": [ -95.3578937, 29.7540847 ] } },
{ "type": "Feature", "properties": { "geog": "Houston", "name": "Houston Community College", "rowid": 80 }, "geometry": { "type": "Point", "coordinates": [ -95.4573309, 29.7214239 ] } },
{ "type": "Feature", "properties": { "geog": "Houston", "name": "The Pit Room", "rowid": 81 }, "geometry": { "type": "Point", "coordinates": [ -95.3941091, 29.7342298 ] } },
{ "type": "Feature", "properties": { "geog": "Houston", "name": "Ninfa's on Navigation", "rowid": 82 }, "geometry": { "type": "Point", "coordinates": [ -95.342469, 29.7570029 ] } },
{ "type": "Feature", "properties": { "geog": "Houston", "name": "Brava", "rowid": 83 }, "geometry": { "type": "Point", "coordinates": [ -95.3635929, 29.7624376 ] } },
{ "type": "Feature", "properties": { "geog": "Houston", "name": "The St. Regis Houston", "rowid": 84 }, "geometry": { "type": "Point", "coordinates": [ -95.4502714, 29.747475 ] } },
{ "type": "Feature", "properties": { "geog": "Houston", "name": "Target", "rowid": 85 }, "geometry": { "type": "Point", "coordinates": [ -95.4190442, 29.6928709 ] } },
{ "type": "Feature", "properties": { "geog": "Houston", "name": "Holiday Inn Houston Downtown", "rowid": 86 }, "geometry": { "type": "Point", "coordinates": [ -95.3692296, 29.7520384 ] } },
{ "type": "Feature", "properties": { "geog": "Houston", "name": "Sterling at Regent Square", "rowid": 87 }, "geometry": { "type": "Point", "coordinates": [ -95.4039669, 29.7565081 ] } },
{ "type": "Feature", "properties": { "geog": "Houston", "name": "The Rustic", "rowid": 88 }, "geometry": { "type": "Point", "coordinates": [ -95.3598501, 29.7500455 ] } },
{ "type": "Feature", "properties": { "geog": "Houston", "name": "Holiday Inn Express Houston - Galleria Area", "rowid": 89 }, "geometry": { "type": "Point", "coordinates": [ -95.4567169, 29.7428622 ] } },
{ "type": "Feature", "properties": { "geog": "Houston", "name": "Sweet at Sugar Room", "rowid": 90 }, "geometry": { "type": "Point", "coordinates": [ -95.4132949, 29.7706485 ] } },
{ "type": "Feature", "properties": { "geog": "Houston", "name": "Wonder Bar", "rowid": 91 }, "geometry": { "type": "Point", "coordinates": [ -95.378225, 29.748955 ] } },
{ "type": "Feature", "properties": { "geog": "Houston", "name": "Uchi", "rowid": 92 }, "geometry": { "type": "Point", "coordinates": [ -95.3901105, 29.745077 ] } },
{ "type": "Feature", "properties": { "geog": "Houston", "name": "Baylor College Of Medicine", "rowid": 93 }, "geometry": { "type": "Point", "coordinates": [ -95.3959809, 29.7103566 ] } },
{ "type": "Feature", "properties": { "geog": "Houston", "name": "Bar 5015", "rowid": 94 }, "geometry": { "type": "Point", "coordinates": [ -95.3781596, 29.723782 ] } },
{ "type": "Feature", "properties": { "geog": "Houston", "name": "Valet, Memorial Hermann", "rowid": 95 }, "geometry": { "type": "Point", "coordinates": [ -95.3965629, 29.7142438 ] } },
{ "type": "Feature", "properties": { "geog": "Houston", "name": "Wicklow Heights", "rowid": 96 }, "geometry": { "type": "Point", "coordinates": [ -95.417116, 29.8029555 ] } },
{ "type": "Feature", "properties": { "geog": "Houston", "name": "Clutch Bar", "rowid": 97 }, "geometry": { "type": "Point", "coordinates": [ -95.4160509, 29.7707817 ] } },
{ "type": "Feature", "properties": { "geog": "Houston", "name": "Little Woodrow's", "rowid": 98 }, "geometry": { "type": "Point", "coordinates": [ -95.377267, 29.7498159 ] } },
{ "type": "Feature", "properties": { "geog": "Houston", "name": "Catalyst", "rowid": 99 }, "geometry": { "type": "Point", "coordinates": [ -95.3583587, 29.7580528 ] } },
{ "type": "Feature", "properties": { "geog": "Houston", "name": "Hilton Garden Inn Houston Medical Center", "rowid": 100 }, "geometry": { "type": "Point", "coordinates": [ -95.385428, 29.7046554 ] } },
{ "type": "Feature", "properties": { "geog": "San_Francisco", "name": "San Francisco Caltrain Train Station", "rowid": 1 }, "geometry": { "type": "Point", "coordinates": [ -122.3954152, 37.775987 ] } },
{ "type": "Feature", "properties": { "geog": "San_Francisco", "name": "San Francisco Marriott Marquis", "rowid": 2 }, "geometry": { "type": "Point", "coordinates": [ -122.4043205, 37.7852036 ] } },
{ "type": "Feature", "properties": { "geog": "San_Francisco", "name": "The Moscone Center", "rowid": 3 }, "geometry": { "type": "Point", "coordinates": [ -122.4005166, 37.7842388 ] } },
{ "type": "Feature", "properties": { "geog": "San_Francisco", "name": "Parc 55 Hotel", "rowid": 4 }, "geometry": { "type": "Point", "coordinates": [ -122.4089694, 37.7848291 ] } },
{ "type": "Feature", "properties": { "geog": "San_Francisco", "name": "Chase Center", "rowid": 5 }, "geometry": { "type": "Point", "coordinates": [ -122.3871451, 37.7678336 ] } },
{ "type": "Feature", "properties": { "geog": "San_Francisco", "name": "Hyatt Regency San Francisco", "rowid": 6 }, "geometry": { "type": "Point", "coordinates": [ -122.3961188, 37.7941444 ] } },
{ "type": "Feature", "properties": { "geog": "San_Francisco", "name": "Palace Hotel, a Luxury Collection Hotel", "rowid": 7 }, "geometry": { "type": "Point", "coordinates": [ -122.4018845, 37.7880036 ] } },
{ "type": "Feature", "properties": { "geog": "San_Francisco", "name": "Fairmont Hotel", "rowid": 8 }, "geometry": { "type": "Point", "coordinates": [ -122.4104457, 37.7924345 ] } },
{ "type": "Feature", "properties": { "geog": "San_Francisco", "name": "Ferry Building", "rowid": 9 }, "geometry": { "type": "Point", "coordinates": [ -122.3934492, 37.7955205 ] } },
{ "type": "Feature", "properties": { "geog": "San_Francisco", "name": "The Westin", "rowid": 10 }, "geometry": { "type": "Point", "coordinates": [ -122.4090023, 37.787598 ] } },
{ "type": "Feature", "properties": { "geog": "San_Francisco", "name": "The Clancy, Autograph Collection", "rowid": 11 }, "geometry": { "type": "Point", "coordinates": [ -122.396847, 37.7859472 ] } },
{ "type": "Feature", "properties": { "geog": "San_Francisco", "name": "Uber Mission Bay 3", "rowid": 12 }, "geometry": { "type": "Point", "coordinates": [ -122.3884191, 37.7686156 ] } },
{ "type": "Feature", "properties": { "geog": "San_Francisco", "name": "Hotel Nikko", "rowid": 13 }, "geometry": { "type": "Point", "coordinates": [ -122.4092431, 37.7858008 ] } },
{ "type": "Feature", "properties": { "geog": "San_Francisco", "name": "JW Marriott San Francisco Union Square", "rowid": 14 }, "geometry": { "type": "Point", "coordinates": [ -122.4104806, 37.7882991 ] } },
{ "type": "Feature", "properties": { "geog": "San_Francisco", "name": "San Francisco Marriott Union Square", "rowid": 15 }, "geometry": { "type": "Point", "coordinates": [ -122.4083206, 37.7894408 ] } },
{ "type": "Feature", "properties": { "geog": "San_Francisco", "name": "1 Hotel San Francisco", "rowid": 16 }, "geometry": { "type": "Point", "coordinates": [ -122.39302, 37.793719 ] } },
{ "type": "Feature", "properties": { "geog": "San_Francisco", "name": "Hotel Riu Plaza Fisherman's Wharf", "rowid": 17 }, "geometry": { "type": "Point", "coordinates": [ -122.4136248, 37.8070189 ] } },
{ "type": "Feature", "properties": { "geog": "San_Francisco", "name": "The Stanford Court San Francisco", "rowid": 18 }, "geometry": { "type": "Point", "coordinates": [ -122.4095768, 37.7915499 ] } },
{ "type": "Feature", "properties": { "geog": "San_Francisco", "name": "InterContinental", "rowid": 19 }, "geometry": { "type": "Point", "coordinates": [ -122.4102499, 37.7914124 ] } },
{ "type": "Feature", "properties": { "geog": "San_Francisco", "name": "W San Francisco", "rowid": 20 }, "geometry": { "type": "Point", "coordinates": [ -122.4004502, 37.7854089 ] } },
{ "type": "Feature", "properties": { "geog": "San_Francisco", "name": "Hilton San Francisco Union Square", "rowid": 21 }, "geometry": { "type": "Point", "coordinates": [ -122.40986, 37.7854 ] } },
{ "type": "Feature", "properties": { "geog": "San_Francisco", "name": "The Clift Royal Sonesta", "rowid": 22 }, "geometry": { "type": "Point", "coordinates": [ -122.4110792, 37.7866371 ] } },
{ "type": "Feature", "properties": { "geog": "San_Francisco", "name": "Hilton San Francisco Financial District", "rowid": 23 }, "geometry": { "type": "Point", "coordinates": [ -122.404792, 37.7951358 ] } },
{ "type": "Feature", "properties": { "geog": "San_Francisco", "name": "Hyatt Regency San Francisco Downtown Soma", "rowid": 24 }, "geometry": { "type": "Point", "coordinates": [ -122.4031111, 37.7865285 ] } },
{ "type": "Feature", "properties": { "geog": "San_Francisco", "name": "Holiday Inn", "rowid": 25 }, "geometry": { "type": "Point", "coordinates": [ -122.4215661, 37.7897738 ] } },
{ "type": "Feature", "properties": { "geog": "San_Francisco", "name": "San Francisco Marriott Fisherman's Wharf", "rowid": 26 }, "geometry": { "type": "Point", "coordinates": [ -122.4173917, 37.8056973 ] } },
{ "type": "Feature", "properties": { "geog": "San_Francisco", "name": "Hotel Kabuki", "rowid": 27 }, "geometry": { "type": "Point", "coordinates": [ -122.4286478, 37.7854499 ] } },
{ "type": "Feature", "properties": { "geog": "San_Francisco", "name": "The Ritz-Carlton", "rowid": 28 }, "geometry": { "type": "Point", "coordinates": [ -122.4071242, 37.7918118 ] } },
{ "type": "Feature", "properties": { "geog": "San_Francisco", "name": "Daly City BART Station", "rowid": 29 }, "geometry": { "type": "Point", "coordinates": [ -122.4688788, 37.706341 ] } },
{ "type": "Feature", "properties": { "geog": "San_Francisco", "name": "Beacon Grand, A Union Square Hotel", "rowid": 30 }, "geometry": { "type": "Point", "coordinates": [ -122.4079692, 37.7888728 ] } },
{ "type": "Feature", "properties": { "geog": "San_Francisco", "name": "Hyatt Place San Francisco / Downtown", "rowid": 31 }, "geometry": { "type": "Point", "coordinates": [ -122.3924646, 37.7788413 ] } },
{ "type": "Feature", "properties": { "geog": "San_Francisco", "name": "Grand Hyatt", "rowid": 32 }, "geometry": { "type": "Point", "coordinates": [ -122.4071913, 37.7891301 ] } },
{ "type": "Feature", "properties": { "geog": "San_Francisco", "name": "Hotel Adagio", "rowid": 33 }, "geometry": { "type": "Point", "coordinates": [ -122.4124338, 37.7870398 ] } },
{ "type": "Feature", "properties": { "geog": "San_Francisco", "name": "Salesforce Tower", "rowid": 34 }, "geometry": { "type": "Point", "coordinates": [ -122.3970615, 37.789769 ] } },
{ "type": "Feature", "properties": { "geog": "San_Francisco", "name": "Intercontinental San Francisco", "rowid": 35 }, "geometry": { "type": "Point", "coordinates": [ -122.4048933, 37.7820124 ] } },
{ "type": "Feature", "properties": { "geog": "San_Francisco", "name": "Balboa Cafe", "rowid": 36 }, "geometry": { "type": "Point", "coordinates": [ -122.4360898, 37.7988237 ] } },
{ "type": "Feature", "properties": { "geog": "San_Francisco", "name": "The St. Regis", "rowid": 37 }, "geometry": { "type": "Point", "coordinates": [ -122.4015005, 37.7861614 ] } },
{ "type": "Feature", "properties": { "geog": "San_Francisco", "name": "Costco", "rowid": 38 }, "geometry": { "type": "Point", "coordinates": [ -122.4109441, 37.7710265 ] } },
{ "type": "Feature", "properties": { "geog": "San_Francisco", "name": "Embarcadero BART Station", "rowid": 39 }, "geometry": { "type": "Point", "coordinates": [ -122.3979467, 37.7922566 ] } },
{ "type": "Feature", "properties": { "geog": "San_Francisco", "name": "Bar Darling", "rowid": 40 }, "geometry": { "type": "Point", "coordinates": [ -122.4405205, 37.8000835 ] } },
{ "type": "Feature", "properties": { "geog": "San_Francisco", "name": "Golden Gate Bridge Welcome Center", "rowid": 41 }, "geometry": { "type": "Point", "coordinates": [ -122.4748598, 37.8077893 ] } },
{ "type": "Feature", "properties": { "geog": "San_Francisco", "name": "The Midway", "rowid": 42 }, "geometry": { "type": "Point", "coordinates": [ -122.3862028, 37.7494999 ] } },
{ "type": "Feature", "properties": { "geog": "San_Francisco", "name": "Omni Hotels and Resorts", "rowid": 43 }, "geometry": { "type": "Point", "coordinates": [ -122.403417, 37.7930852 ] } },
{ "type": "Feature", "properties": { "geog": "San_Francisco", "name": "Kimpton Enso Hotel", "rowid": 44 }, "geometry": { "type": "Point", "coordinates": [ -122.4301334, 37.7866613 ] } },
{ "type": "Feature", "properties": { "geog": "San_Francisco", "name": "Argonaut Hotel", "rowid": 45 }, "geometry": { "type": "Point", "coordinates": [ -122.4204349, 37.8075408 ] } },
{ "type": "Feature", "properties": { "geog": "San_Francisco", "name": "The Battery", "rowid": 46 }, "geometry": { "type": "Point", "coordinates": [ -122.4011987, 37.797914 ] } },
{ "type": "Feature", "properties": { "geog": "San_Francisco", "name": "Courtyard San Francisco Union Square", "rowid": 47 }, "geometry": { "type": "Point", "coordinates": [ -122.4142648, 37.7872501 ] } },
{ "type": "Feature", "properties": { "geog": "San_Francisco", "name": "La Mar", "rowid": 48 }, "geometry": { "type": "Point", "coordinates": [ -122.3954108, 37.7972251 ] } },
{ "type": "Feature", "properties": { "geog": "San_Francisco", "name": "Kimpton Alton Hotel", "rowid": 49 }, "geometry": { "type": "Point", "coordinates": [ -122.4167314, 37.8066416 ] } },
{ "type": "Feature", "properties": { "geog": "San_Francisco", "name": "Hotel Zephyr", "rowid": 50 }, "geometry": { "type": "Point", "coordinates": [ -122.4131619, 37.8080186 ] } },
{ "type": "Feature", "properties": { "geog": "San_Francisco", "name": "Pier 33", "rowid": 51 }, "geometry": { "type": "Point", "coordinates": [ -122.4051461, 37.8067974 ] } },
{ "type": "Feature", "properties": { "geog": "San_Francisco", "name": "The Jay, Autograph Collection", "rowid": 52 }, "geometry": { "type": "Point", "coordinates": [ -122.4006825, 37.7947052 ] } },
{ "type": "Feature", "properties": { "geog": "San_Francisco", "name": "Painted Ladies", "rowid": 53 }, "geometry": { "type": "Point", "coordinates": [ -122.4327574, 37.7762515 ] } },
{ "type": "Feature", "properties": { "geog": "San_Francisco", "name": "Club Quarters Hotels", "rowid": 54 }, "geometry": { "type": "Point", "coordinates": [ -122.400653, 37.7951801 ] } },
{ "type": "Feature", "properties": { "geog": "San_Francisco", "name": "Stonestown Galleria", "rowid": 55 }, "geometry": { "type": "Point", "coordinates": [ -122.4769891, 37.72827 ] } },
{ "type": "Feature", "properties": { "geog": "San_Francisco", "name": "Luma Hotel", "rowid": 56 }, "geometry": { "type": "Point", "coordinates": [ -122.3902933, 37.7747356 ] } },
{ "type": "Feature", "properties": { "geog": "San_Francisco", "name": "Hyatt Centric Fisherman's Wharf San Francisco", "rowid": 57 }, "geometry": { "type": "Point", "coordinates": [ -122.4160138, 37.805842 ] } },
{ "type": "Feature", "properties": { "geog": "San_Francisco", "name": "16th St. Mission BART Station", "rowid": 58 }, "geometry": { "type": "Point", "coordinates": [ -122.4199243, 37.7647913 ] } },
{ "type": "Feature", "properties": { "geog": "San_Francisco", "name": "Hilton Union Square Lobby Bar", "rowid": 59 }, "geometry": { "type": "Point", "coordinates": [ -122.41086, 37.78595 ] } },
{ "type": "Feature", "properties": { "geog": "San_Francisco", "name": "Fisherman's Wharf", "rowid": 60 }, "geometry": { "type": "Point", "coordinates": [ -122.4097885, 37.808909 ] } },
{ "type": "Feature", "properties": { "geog": "San_Francisco", "name": "Bar April Jean", "rowid": 61 }, "geometry": { "type": "Point", "coordinates": [ -122.4075212, 37.7995694 ] } },
{ "type": "Feature", "properties": { "geog": "San_Francisco", "name": "Hotel Caza", "rowid": 62 }, "geometry": { "type": "Point", "coordinates": [ -122.4179864, 37.8065678 ] } },
{ "type": "Feature", "properties": { "geog": "San_Francisco", "name": "The WESTIN St. Francis - Lot", "rowid": 63 }, "geometry": { "type": "Point", "coordinates": [ -122.40937, 37.78735 ] } },
{ "type": "Feature", "properties": { "geog": "San_Francisco", "name": "Marriott Vacation Club, San Francisco", "rowid": 64 }, "geometry": { "type": "Point", "coordinates": [ -122.4168727, 37.8053722 ] } },
{ "type": "Feature", "properties": { "geog": "San_Francisco", "name": "Tony’s Pizza Napoletana", "rowid": 65 }, "geometry": { "type": "Point", "coordinates": [ -122.4089561, 37.8003079 ] } },
{ "type": "Feature", "properties": { "geog": "San_Francisco", "name": "Vesuvio", "rowid": 66 }, "geometry": { "type": "Point", "coordinates": [ -122.4066164, 37.7976107 ] } },
{ "type": "Feature", "properties": { "geog": "San_Francisco", "name": "Courtyard San Francisco Downtown/Van Ness Ave.", "rowid": 67 }, "geometry": { "type": "Point", "coordinates": [ -122.4207616, 37.7854697 ] } },
{ "type": "Feature", "properties": { "geog": "San_Francisco", "name": "Oracle Park", "rowid": 68 }, "geometry": { "type": "Point", "coordinates": [ -122.3891213, 37.7783942 ] } },
{ "type": "Feature", "properties": { "geog": "San_Francisco", "name": "citizenM Union Square", "rowid": 69 }, "geometry": { "type": "Point", "coordinates": [ -122.4075479, 37.7857424 ] } },
{ "type": "Feature", "properties": { "geog": "San_Francisco", "name": "Hotel via in South Beach", "rowid": 70 }, "geometry": { "type": "Point", "coordinates": [ -122.390873, 37.7792717 ] } },
{ "type": "Feature", "properties": { "geog": "San_Francisco", "name": "Four Seasons Hotel San Francisco", "rowid": 71 }, "geometry": { "type": "Point", "coordinates": [ -122.4040976, 37.7863606 ] } },
{ "type": "Feature", "properties": { "geog": "San_Francisco", "name": "The Landing", "rowid": 72 }, "geometry": { "type": "Point", "coordinates": [ -122.3948628, 37.7572971 ] } },
{ "type": "Feature", "properties": { "geog": "San_Francisco", "name": "Four Seasons", "rowid": 73 }, "geometry": { "type": "Point", "coordinates": [ -122.4007118, 37.7925736 ] } },
{ "type": "Feature", "properties": { "geog": "San_Francisco", "name": "The Marker", "rowid": 74 }, "geometry": { "type": "Point", "coordinates": [ -122.4118592, 37.78667 ] } },
{ "type": "Feature", "properties": { "geog": "San_Francisco", "name": "Canopy by Hilton - San Francisco SOMA", "rowid": 75 }, "geometry": { "type": "Point", "coordinates": [ -122.401579, 37.782103 ] } },
{ "type": "Feature", "properties": { "geog": "San_Francisco", "name": "The Buena Vista Cafe", "rowid": 76 }, "geometry": { "type": "Point", "coordinates": [ -122.4207793, 37.8064838 ] } },
{ "type": "Feature", "properties": { "geog": "San_Francisco", "name": "House of Prime Rib", "rowid": 77 }, "geometry": { "type": "Point", "coordinates": [ -122.422647, 37.7934277 ] } },
{ "type": "Feature", "properties": { "geog": "San_Francisco", "name": "Audio", "rowid": 78 }, "geometry": { "type": "Point", "coordinates": [ -122.4137111, 37.7713995 ] } },
{ "type": "Feature", "properties": { "geog": "San_Francisco", "name": "California Academy of Sciences", "rowid": 79 }, "geometry": { "type": "Point", "coordinates": [ -122.4661072, 37.7698654 ] } },
{ "type": "Feature", "properties": { "geog": "San_Francisco", "name": "Union Square", "rowid": 80 }, "geometry": { "type": "Point", "coordinates": [ -122.4075211, 37.7879503 ] } },
{ "type": "Feature", "properties": { "geog": "San_Francisco", "name": "The Barnes San Francisco, Tapestry Collection by Hilton", "rowid": 81 }, "geometry": { "type": "Point", "coordinates": [ -122.4082014, 37.7867769 ] } },
{ "type": "Feature", "properties": { "geog": "San_Francisco", "name": "24th St. Mission Station", "rowid": 82 }, "geometry": { "type": "Point", "coordinates": [ -122.4181774, 37.7524797 ] } },
{ "type": "Feature", "properties": { "geog": "San_Francisco", "name": "500 Folsom", "rowid": 83 }, "geometry": { "type": "Point", "coordinates": [ -122.3950116, 37.7872229 ] } },
{ "type": "Feature", "properties": { "geog": "San_Francisco", "name": "Little Original Joe's", "rowid": 84 }, "geometry": { "type": "Point", "coordinates": [ -122.44148, 37.80002 ] } },
{ "type": "Feature", "properties": { "geog": "San_Francisco", "name": "Northstar Cafe", "rowid": 85 }, "geometry": { "type": "Point", "coordinates": [ -122.4103158, 37.7989983 ] } },
{ "type": "Feature", "properties": { "geog": "San_Francisco", "name": "China Live", "rowid": 86 }, "geometry": { "type": "Point", "coordinates": [ -122.4079033, 37.7980014 ] } },
{ "type": "Feature", "properties": { "geog": "San_Francisco", "name": "Hotel Spero", "rowid": 87 }, "geometry": { "type": "Point", "coordinates": [ -122.4116196, 37.7861724 ] } },
{ "type": "Feature", "properties": { "geog": "San_Francisco", "name": "One Maritime Plaza", "rowid": 88 }, "geometry": { "type": "Point", "coordinates": [ -122.3992381, 37.7956037 ] } },
{ "type": "Feature", "properties": { "geog": "San_Francisco", "name": "Monroe", "rowid": 89 }, "geometry": { "type": "Point", "coordinates": [ -122.4050319, 37.7978403 ] } },
{ "type": "Feature", "properties": { "geog": "San_Francisco", "name": "Hotel Zeppelin San Francisco", "rowid": 90 }, "geometry": { "type": "Point", "coordinates": [ -122.4107262, 37.787731 ] } },
{ "type": "Feature", "properties": { "geog": "San_Francisco", "name": "Bus Stop Saloon", "rowid": 91 }, "geometry": { "type": "Point", "coordinates": [ -122.4309888, 37.7979604 ] } },
{ "type": "Feature", "properties": { "geog": "San_Francisco", "name": "Hotel Zoe Fisherman's Wharf", "rowid": 92 }, "geometry": { "type": "Point", "coordinates": [ -122.41406, 37.80616 ] } },
{ "type": "Feature", "properties": { "geog": "San_Francisco", "name": "Kokkari Estiatorio Cuisine", "rowid": 93 }, "geometry": { "type": "Point", "coordinates": [ -122.3998971, 37.7970176 ] } },
{ "type": "Feature", "properties": { "geog": "San_Francisco", "name": "Spark Social SF", "rowid": 94 }, "geometry": { "type": "Point", "coordinates": [ -122.3915859, 37.7707821 ] } },
{ "type": "Feature", "properties": { "geog": "San_Francisco", "name": "Galleria Park Hotel", "rowid": 95 }, "geometry": { "type": "Point", "coordinates": [ -122.4035176, 37.7896033 ] } },
{ "type": "Feature", "properties": { "geog": "San_Francisco", "name": "Pier 27", "rowid": 96 }, "geometry": { "type": "Point", "coordinates": [ -122.4011392, 37.8053803 ] } },
{ "type": "Feature", "properties": { "geog": "San_Francisco", "name": "Madrone Art Bar", "rowid": 97 }, "geometry": { "type": "Point", "coordinates": [ -122.4373912, 37.7742521 ] } },
{ "type": "Feature", "properties": { "geog": "San_Francisco", "name": "Bay Club San Francisco", "rowid": 98 }, "geometry": { "type": "Point", "coordinates": [ -122.4026295, 37.803455 ] } },
{ "type": "Feature", "properties": { "geog": "San_Francisco", "name": "Wayfare Tavern", "rowid": 99 }, "geometry": { "type": "Point", "coordinates": [ -122.3999675, 37.7921078 ] } },
{ "type": "Feature", "properties": { "geog": "San_Francisco", "name": "Hotel Carlton", "rowid": 100 }, "geometry": { "type": "Point", "coordinates": [ -122.4178613, 37.7877017 ] } },
{ "type": "Feature", "properties": { "geog": "South_Bay", "name": "Sheraton", "rowid": 1 }, "geometry": { "type": "Point", "coordinates": [ -122.1634683, 37.4412244 ] } },
{ "type": "Feature", "properties": { "geog": "South_Bay", "name": "Shoreline Amphitheatre", "rowid": 2 }, "geometry": { "type": "Point", "coordinates": [ -122.0806993, 37.4267776 ] } },
{ "type": "Feature", "properties": { "geog": "South_Bay", "name": "The Westin", "rowid": 3 }, "geometry": { "type": "Point", "coordinates": [ -122.162683, 37.4407151 ] } },
{ "type": "Feature", "properties": { "geog": "South_Bay", "name": "Shashi Hotel", "rowid": 4 }, "geometry": { "type": "Point", "coordinates": [ -122.0770127, 37.4168998 ] } },
{ "type": "Feature", "properties": { "geog": "South_Bay", "name": "Four Seasons Hotel Silicon Valley", "rowid": 5 }, "geometry": { "type": "Point", "coordinates": [ -122.1420148, 37.4602265 ] } },
{ "type": "Feature", "properties": { "geog": "South_Bay", "name": "Ameswell Hotel", "rowid": 6 }, "geometry": { "type": "Point", "coordinates": [ -122.0670288, 37.4070826 ] } },
{ "type": "Feature", "properties": { "geog": "South_Bay", "name": "Hyatt Centric Mountain View", "rowid": 7 }, "geometry": { "type": "Point", "coordinates": [ -122.1100306, 37.403807 ] } },
{ "type": "Feature", "properties": { "geog": "South_Bay", "name": "Hilton Garden Inn Palo Alto", "rowid": 8 }, "geometry": { "type": "Point", "coordinates": [ -122.1230535, 37.4093052 ] } },
{ "type": "Feature", "properties": { "geog": "South_Bay", "name": "Hotel Citrine, Palo Alto, A Tribute Portfolio Hotel", "rowid": 9 }, "geometry": { "type": "Point", "coordinates": [ -122.1019481, 37.4179147 ] } },
{ "type": "Feature", "properties": { "geog": "South_Bay", "name": "Apple Park Visitor Center", "rowid": 10 }, "geometry": { "type": "Point", "coordinates": [ -122.0053931, 37.3328347 ] } },
{ "type": "Feature", "properties": { "geog": "South_Bay", "name": "AC Hotel Palo Alto", "rowid": 11 }, "geometry": { "type": "Point", "coordinates": [ -122.1021042, 37.417292 ] } },
{ "type": "Feature", "properties": { "geog": "South_Bay", "name": "AC Hotel Sunnyvale Cupertino", "rowid": 12 }, "geometry": { "type": "Point", "coordinates": [ -122.0250656, 37.3626951 ] } },
{ "type": "Feature", "properties": { "geog": "South_Bay", "name": "Uber Sunnyvale", "rowid": 13 }, "geometry": { "type": "Point", "coordinates": [ -122.0336909, 37.3771376 ] } },
{ "type": "Feature", "properties": { "geog": "South_Bay", "name": "Courtyard Palo Alto Los Altos", "rowid": 14 }, "geometry": { "type": "Point", "coordinates": [ -122.1191427, 37.4047681 ] } },
{ "type": "Feature", "properties": { "geog": "South_Bay", "name": "Caltrain Lawrence Station", "rowid": 15 }, "geometry": { "type": "Point", "coordinates": [ -121.9970167, 37.3705601 ] } },
{ "type": "Feature", "properties": { "geog": "South_Bay", "name": "Crowne Plaza Palo Alto", "rowid": 16 }, "geometry": { "type": "Point", "coordinates": [ -122.1216735, 37.4058671 ] } },
{ "type": "Feature", "properties": { "geog": "South_Bay", "name": "The Stanford Park Hotel", "rowid": 17 }, "geometry": { "type": "Point", "coordinates": [ -122.172181, 37.4478949 ] } },
{ "type": "Feature", "properties": { "geog": "South_Bay", "name": "Palo Alto Caltrain Station", "rowid": 18 }, "geometry": { "type": "Point", "coordinates": [ -122.1634023, 37.4428859 ] } },
{ "type": "Feature", "properties": { "geog": "South_Bay", "name": "Residence Inn", "rowid": 19 }, "geometry": { "type": "Point", "coordinates": [ -122.1163927, 37.4017904 ] } },
{ "type": "Feature", "properties": { "geog": "South_Bay", "name": "Aloft Mountain View", "rowid": 20 }, "geometry": { "type": "Point", "coordinates": [ -122.0615708, 37.3765537 ] } },
{ "type": "Feature", "properties": { "geog": "South_Bay", "name": "The Patio @ Rudy's", "rowid": 21 }, "geometry": { "type": "Point", "coordinates": [ -122.1638876, 37.4451638 ] } },
{ "type": "Feature", "properties": { "geog": "South_Bay", "name": "Graduate by Hilton", "rowid": 22 }, "geometry": { "type": "Point", "coordinates": [ -122.1591323, 37.4480085 ] } },
{ "type": "Feature", "properties": { "geog": "South_Bay", "name": "Mountain View Caltrain Station", "rowid": 23 }, "geometry": { "type": "Point", "coordinates": [ -122.07704, 37.394 ] } },
{ "type": "Feature", "properties": { "geog": "South_Bay", "name": "Walmart", "rowid": 24 }, "geometry": { "type": "Point", "coordinates": [ -122.1097147, 37.400849 ] } },
{ "type": "Feature", "properties": { "geog": "South_Bay", "name": "Residence Inn Palo Alto Menlo Park", "rowid": 25 }, "geometry": { "type": "Point", "coordinates": [ -122.1863267, 37.4564176 ] } },
{ "type": "Feature", "properties": { "geog": "South_Bay", "name": "Courtyard by Marriott Sunnyvale Silicon Valley", "rowid": 26 }, "geometry": { "type": "Point", "coordinates": [ -122.0395659, 37.3694238 ] } },
{ "type": "Feature", "properties": { "geog": "South_Bay", "name": "Intuit Inc. - Building 20", "rowid": 27 }, "geometry": { "type": "Point", "coordinates": [ -122.097716, 37.4292142 ] } },
{ "type": "Feature", "properties": { "geog": "South_Bay", "name": "Stanford Shopping Center", "rowid": 28 }, "geometry": { "type": "Point", "coordinates": [ -122.1713241, 37.4430075 ] } },
{ "type": "Feature", "properties": { "geog": "South_Bay", "name": "Target", "rowid": 29 }, "geometry": { "type": "Point", "coordinates": [ -122.0322, 37.3738421 ] } },
{ "type": "Feature", "properties": { "geog": "South_Bay", "name": "Schwab Residential Center", "rowid": 30 }, "geometry": { "type": "Point", "coordinates": [ -122.1615564, 37.4265101 ] } },
{ "type": "Feature", "properties": { "geog": "South_Bay", "name": "Residence Inn Sunnyvale Silicon Valley II", "rowid": 31 }, "geometry": { "type": "Point", "coordinates": [ -121.9970363, 37.3854845 ] } },
{ "type": "Feature", "properties": { "geog": "South_Bay", "name": "Mountain View Station", "rowid": 32 }, "geometry": { "type": "Point", "coordinates": [ -122.0755224, 37.3942493 ] } },
{ "type": "Feature", "properties": { "geog": "South_Bay", "name": "BMW of Mountain View", "rowid": 33 }, "geometry": { "type": "Point", "coordinates": [ -122.0716065, 37.3806554 ] } },
{ "type": "Feature", "properties": { "geog": "South_Bay", "name": "Kaiser Permanente Santa Clara Medical Center", "rowid": 34 }, "geometry": { "type": "Point", "coordinates": [ -121.9984891, 37.3360911 ] } },
{ "type": "Feature", "properties": { "geog": "South_Bay", "name": "Hilton Garden Inn", "rowid": 35 }, "geometry": { "type": "Point", "coordinates": [ -122.0295933, 37.3947657 ] } },
{ "type": "Feature", "properties": { "geog": "South_Bay", "name": "San Antonio Caltrain Train Station", "rowid": 36 }, "geometry": { "type": "Point", "coordinates": [ -122.107412, 37.4074794 ] } },
{ "type": "Feature", "properties": { "geog": "South_Bay", "name": "Aloft Sunnyvale", "rowid": 37 }, "geometry": { "type": "Point", "coordinates": [ -122.0288682, 37.3762109 ] } },
{ "type": "Feature", "properties": { "geog": "South_Bay", "name": "Nobu Hotel Palo Alto", "rowid": 38 }, "geometry": { "type": "Point", "coordinates": [ -122.1614977, 37.4436454 ] } },
{ "type": "Feature", "properties": { "geog": "South_Bay", "name": "Menlo Park Caltrain Train Station", "rowid": 39 }, "geometry": { "type": "Point", "coordinates": [ -122.1825753, 37.4547834 ] } },
{ "type": "Feature", "properties": { "geog": "South_Bay", "name": "Residence Inn Palo Alto Mountain View", "rowid": 40 }, "geometry": { "type": "Point", "coordinates": [ -122.0957142, 37.3929634 ] } },
{ "type": "Feature", "properties": { "geog": "South_Bay", "name": "Dinah's Garden Hotel", "rowid": 41 }, "geometry": { "type": "Point", "coordinates": [ -122.1200448, 37.4078546 ] } },
{ "type": "Feature", "properties": { "geog": "South_Bay", "name": "The Sports Page", "rowid": 42 }, "geometry": { "type": "Point", "coordinates": [ -122.0786134, 37.4161338 ] } },
{ "type": "Feature", "properties": { "geog": "South_Bay", "name": "Hampton Inn & Suites Mountain View", "rowid": 43 }, "geometry": { "type": "Point", "coordinates": [ -122.0757463, 37.39879 ] } },
{ "type": "Feature", "properties": { "geog": "South_Bay", "name": "Homewood Suites by Hilton Palo Alto", "rowid": 44 }, "geometry": { "type": "Point", "coordinates": [ -122.1187693, 37.4055416 ] } },
{ "type": "Feature", "properties": { "geog": "South_Bay", "name": "Park James Hotel", "rowid": 45 }, "geometry": { "type": "Point", "coordinates": [ -122.1875609, 37.4563001 ] } },
{ "type": "Feature", "properties": { "geog": "South_Bay", "name": "Taverna", "rowid": 46 }, "geometry": { "type": "Point", "coordinates": [ -122.1589496, 37.4420856 ] } },
{ "type": "Feature", "properties": { "geog": "South_Bay", "name": "The Domain Hotel", "rowid": 47 }, "geometry": { "type": "Point", "coordinates": [ -122.0019956, 37.3528355 ] } },
{ "type": "Feature", "properties": { "geog": "South_Bay", "name": "Computer History Museum", "rowid": 48 }, "geometry": { "type": "Point", "coordinates": [ -122.0772893, 37.4143142 ] } },
{ "type": "Feature", "properties": { "geog": "South_Bay", "name": "The Nest", "rowid": 49 }, "geometry": { "type": "Point", "coordinates": [ -122.128951, 37.4173181 ] } },
{ "type": "Feature", "properties": { "geog": "South_Bay", "name": "Eureka! Mountain View", "rowid": 50 }, "geometry": { "type": "Point", "coordinates": [ -122.0786498, 37.3938462 ] } },
{ "type": "Feature", "properties": { "geog": "South_Bay", "name": "Nobu", "rowid": 51 }, "geometry": { "type": "Point", "coordinates": [ -122.1614574, 37.4436837 ] } },
{ "type": "Feature", "properties": { "geog": "South_Bay", "name": "Telefèric Barcelona", "rowid": 52 }, "geometry": { "type": "Point", "coordinates": [ -122.158629, 37.4384918 ] } },
{ "type": "Feature", "properties": { "geog": "South_Bay", "name": "Pure Nightclub", "rowid": 53 }, "geometry": { "type": "Point", "coordinates": [ -122.0298268, 37.376696 ] } },
{ "type": "Feature", "properties": { "geog": "South_Bay", "name": "El Prado Hotel", "rowid": 54 }, "geometry": { "type": "Point", "coordinates": [ -122.1590537, 37.447734 ] } },
{ "type": "Feature", "properties": { "geog": "South_Bay", "name": "Caltrain-Mountain View", "rowid": 55 }, "geometry": { "type": "Point", "coordinates": [ -122.0760867, 37.3939981 ] } },
{ "type": "Feature", "properties": { "geog": "South_Bay", "name": "Avana", "rowid": 56 }, "geometry": { "type": "Point", "coordinates": [ -122.0137912, 37.3820886 ] } },
{ "type": "Feature", "properties": { "geog": "South_Bay", "name": "Intuit Inc. - Building 22", "rowid": 57 }, "geometry": { "type": "Point", "coordinates": [ -122.0982164, 37.4271351 ] } },
{ "type": "Feature", "properties": { "geog": "South_Bay", "name": "Stanford University", "rowid": 58 }, "geometry": { "type": "Point", "coordinates": [ -122.1702952, 37.4274982 ] } },
{ "type": "Feature", "properties": { "geog": "South_Bay", "name": "Creekside Inn", "rowid": 59 }, "geometry": { "type": "Point", "coordinates": [ -122.1374629, 37.4186749 ] } },
{ "type": "Feature", "properties": { "geog": "South_Bay", "name": "Microsoft", "rowid": 60 }, "geometry": { "type": "Point", "coordinates": [ -122.0713821, 37.4117734 ] } },
{ "type": "Feature", "properties": { "geog": "South_Bay", "name": "Bldg B, Escondido Village Graduate Residences", "rowid": 61 }, "geometry": { "type": "Point", "coordinates": [ -122.1572384, 37.425573 ] } },
{ "type": "Feature", "properties": { "geog": "South_Bay", "name": "Verve Coffee", "rowid": 62 }, "geometry": { "type": "Point", "coordinates": [ -122.1633017, 37.4445775 ] } },
{ "type": "Feature", "properties": { "geog": "South_Bay", "name": "Knight Management Center", "rowid": 63 }, "geometry": { "type": "Point", "coordinates": [ -122.1621307, 37.428569 ] } },
{ "type": "Feature", "properties": { "geog": "South_Bay", "name": "Larkspur Landing Sunnyvale", "rowid": 64 }, "geometry": { "type": "Point", "coordinates": [ -122.0279805, 37.3944701 ] } },
{ "type": "Feature", "properties": { "geog": "South_Bay", "name": "Bcg", "rowid": 65 }, "geometry": { "type": "Point", "coordinates": [ -122.081682, 37.390667 ] } },
{ "type": "Feature", "properties": { "geog": "South_Bay", "name": "Stanford Graduate School of Business", "rowid": 66 }, "geometry": { "type": "Point", "coordinates": [ -122.1672881, 37.4292736 ] } },
{ "type": "Feature", "properties": { "geog": "South_Bay", "name": "Magnussen's Toyota Palo Alto", "rowid": 67 }, "geometry": { "type": "Point", "coordinates": [ -122.1025754, 37.4150341 ] } },
{ "type": "Feature", "properties": { "geog": "South_Bay", "name": "Courtyard San Jose Cupertino", "rowid": 68 }, "geometry": { "type": "Point", "coordinates": [ -122.0152136, 37.3323146 ] } },
{ "type": "Feature", "properties": { "geog": "South_Bay", "name": "Homewood Suites by Hilton Sunnyvale - Silicon Valley", "rowid": 69 }, "geometry": { "type": "Point", "coordinates": [ -122.017901, 37.355064 ] } },
{ "type": "Feature", "properties": { "geog": "South_Bay", "name": "Cardinal Hotel", "rowid": 70 }, "geometry": { "type": "Point", "coordinates": [ -122.1612828, 37.4445002 ] } },
{ "type": "Feature", "properties": { "geog": "South_Bay", "name": "Google Gradient Canopy", "rowid": 71 }, "geometry": { "type": "Point", "coordinates": [ -122.0794701, 37.4220413 ] } },
{ "type": "Feature", "properties": { "geog": "South_Bay", "name": "Trader Joe's", "rowid": 72 }, "geometry": { "type": "Point", "coordinates": [ -122.1576508, 37.4384518 ] } },
{ "type": "Feature", "properties": { "geog": "South_Bay", "name": "Stanford Hospital", "rowid": 73 }, "geometry": { "type": "Point", "coordinates": [ -122.1769, 37.43429 ] } },
{ "type": "Feature", "properties": { "geog": "South_Bay", "name": "EVGR Building C", "rowid": 74 }, "geometry": { "type": "Point", "coordinates": [ -122.1565345, 37.4265605 ] } },
{ "type": "Feature", "properties": { "geog": "South_Bay", "name": "Databricks MTV", "rowid": 75 }, "geometry": { "type": "Point", "coordinates": [ -122.0615945, 37.387102 ] } },
{ "type": "Feature", "properties": { "geog": "South_Bay", "name": "Amc Sunnyvale 12", "rowid": 76 }, "geometry": { "type": "Point", "coordinates": [ -122.030626, 37.374015 ] } },
{ "type": "Feature", "properties": { "geog": "South_Bay", "name": "Hotel Lucent", "rowid": 77 }, "geometry": { "type": "Point", "coordinates": [ -122.1793299, 37.4513828 ] } },
{ "type": "Feature", "properties": { "geog": "South_Bay", "name": "Evvia Estiatorio", "rowid": 78 }, "geometry": { "type": "Point", "coordinates": [ -122.1638093, 37.4450742 ] } },
{ "type": "Feature", "properties": { "geog": "South_Bay", "name": "Hotel Avante", "rowid": 79 }, "geometry": { "type": "Point", "coordinates": [ -122.060969, 37.376207 ] } },
{ "type": "Feature", "properties": { "geog": "South_Bay", "name": "In-N-Out Burger", "rowid": 80 }, "geometry": { "type": "Point", "coordinates": [ -122.0933269, 37.4209663 ] } },
{ "type": "Feature", "properties": { "geog": "South_Bay", "name": "Target", "rowid": 81 }, "geometry": { "type": "Point", "coordinates": [ -122.1061429, 37.4006861 ] } },
{ "type": "Feature", "properties": { "geog": "South_Bay", "name": "Molly Magees", "rowid": 82 }, "geometry": { "type": "Point", "coordinates": [ -122.0790091, 37.3931072 ] } },
{ "type": "Feature", "properties": { "geog": "South_Bay", "name": "MV Apartments", "rowid": 83 }, "geometry": { "type": "Point", "coordinates": [ -122.1168569, 37.4043408 ] } },
{ "type": "Feature", "properties": { "geog": "South_Bay", "name": "Equinox", "rowid": 84 }, "geometry": { "type": "Point", "coordinates": [ -122.1385833, 37.4220456 ] } },
{ "type": "Feature", "properties": { "geog": "South_Bay", "name": "Cascal", "rowid": 85 }, "geometry": { "type": "Point", "coordinates": [ -122.0812365, 37.3911352 ] } },
{ "type": "Feature", "properties": { "geog": "South_Bay", "name": "Hampton Inn & Suites Sunnyvale Silicon Valley", "rowid": 86 }, "geometry": { "type": "Point", "coordinates": [ -122.01519, 37.35437 ] } },
{ "type": "Feature", "properties": { "geog": "South_Bay", "name": "Frances C. Arrillaga Alumni Center", "rowid": 87 }, "geometry": { "type": "Point", "coordinates": [ -122.1648944, 37.4306866 ] } },
{ "type": "Feature", "properties": { "geog": "South_Bay", "name": "Toyota Sunnyvale", "rowid": 88 }, "geometry": { "type": "Point", "coordinates": [ -122.0444228, 37.3705999 ] } },
{ "type": "Feature", "properties": { "geog": "South_Bay", "name": "The Grand Hotel", "rowid": 89 }, "geometry": { "type": "Point", "coordinates": [ -122.0427942, 37.3711199 ] } },
{ "type": "Feature", "properties": { "geog": "South_Bay", "name": "Monte Carlo", "rowid": 90 }, "geometry": { "type": "Point", "coordinates": [ -122.0794746, 37.3935792 ] } },
{ "type": "Feature", "properties": { "geog": "South_Bay", "name": "Wild Palms Hotel", "rowid": 91 }, "geometry": { "type": "Point", "coordinates": [ -122.013629, 37.351514 ] } },
{ "type": "Feature", "properties": { "geog": "South_Bay", "name": "Playground Global", "rowid": 92 }, "geometry": { "type": "Point", "coordinates": [ -122.1377944, 37.4226995 ] } },
{ "type": "Feature", "properties": { "geog": "South_Bay", "name": "Spruce Apartments", "rowid": 93 }, "geometry": { "type": "Point", "coordinates": [ -122.0254979, 37.3659657 ] } },
{ "type": "Feature", "properties": { "geog": "South_Bay", "name": "Tantau Reception Building", "rowid": 94 }, "geometry": { "type": "Point", "coordinates": [ -122.0063707, 37.3325618 ] } },
{ "type": "Feature", "properties": { "geog": "South_Bay", "name": "Hilton Garden Inn", "rowid": 95 }, "geometry": { "type": "Point", "coordinates": [ -122.02876, 37.39418 ] } },
{ "type": "Feature", "properties": { "geog": "South_Bay", "name": "Trader Joe's", "rowid": 96 }, "geometry": { "type": "Point", "coordinates": [ -122.0357786, 37.3678741 ] } },
{ "type": "Feature", "properties": { "geog": "South_Bay", "name": "Whole Foods Market", "rowid": 97 }, "geometry": { "type": "Point", "coordinates": [ -122.1595982, 37.4423818 ] } },
{ "type": "Feature", "properties": { "geog": "South_Bay", "name": "Lucile Packard Children's Hospital Stanford", "rowid": 98 }, "geometry": { "type": "Point", "coordinates": [ -122.1751128, 37.4360069 ] } },
{ "type": "Feature", "properties": { "geog": "South_Bay", "name": "Ettan", "rowid": 99 }, "geometry": { "type": "Point", "coordinates": [ -122.1614152, 37.44548 ] } },
{ "type": "Feature", "properties": { "geog": "South_Bay", "name": "Maple Tree Inn", "rowid": 100 }, "geometry": { "type": "Point", "coordinates": [ -122.0216002, 37.3598839 ] } }
]
}
